[
    {
        "name": "Derick Roman",
        "streetNumber": 17008,
        "streetName": "5thStreetWest",
        "zip": 94568,
        "city": "Dublin",
        "state": "CA",
        "country": "US",
        "compromised": true,
        "capacity": 7,
        "reserved": 7,
        "latitude": 37.71,
        "longitude": -121.91,
        "ownerName": "Derick Roman",
        "phoneNum": "(271) 341-4101"
    },
    {
        "name": "Yurem Estes",
        "streetNumber": 12433,
        "streetName": "MulberryLane",
        "zip": 94569,
        "city": "PortCosta",
        "state": "CA",
        "country": "US",
        "compromised": false,
        "capacity": 35,
        "reserved": 30,
        "latitude": 38.03,
        "longitude": -122.19,
        "ownerName": "Yurem Estes",
        "phoneNum": "(472) 372-2692"
    },
    {
        "name": "Caitlyn Payne",
        "streetNumber": 7656,
        "streetName": "Route2",
        "zip": 94570,
        "city": "Moraga",
        "state": "CA",
        "country": "US",
        "compromised": false,
        "capacity": 39,
        "reserved": 22,
        "latitude": 38.11,
        "longitude": -122.13,
        "ownerName": "Caitlyn Payne",
        "phoneNum": "(368) 789-5446"
    },
    {
        "name": "Santino Hubbard",
        "streetNumber": 2425,
        "streetName": "Route5",
        "zip": 94571,
        "city": "RioVista",
        "state": "CA",
        "country": "US",
        "compromised": true,
        "capacity": 19,
        "reserved": 5,
        "latitude": 38.18,
        "longitude": -121.73,
        "ownerName": "Santino Hubbard",
        "phoneNum": "(505) 494-6138"
    },
    {
        "name": "Jaylon Patel",
        "streetNumber": 2484,
        "streetName": "MyrtleAvenue",
        "zip": 94572,
        "city": "Rodeo",
        "state": "CA",
        "country": "US",
        "compromised": true,
        "capacity": 12,
        "reserved": 7,
        "latitude": 38.03,
        "longitude": -122.23,
        "ownerName": "Jaylon Patel",
        "phoneNum": "(745) 889-3880"
    },
    {
        "name": "Alayna Crosby",
        "streetNumber": 17886,
        "streetName": "VirginiaStreet",
        "zip": 94573,
        "city": "Rutherford",
        "state": "CA",
        "country": "US",
        "compromised": false,
        "capacity": 19,
        "reserved": 8,
        "latitude": 38.45,
        "longitude": -122.41,
        "ownerName": "Alayna Crosby",
        "phoneNum": "(205) 400-0883"
    },
    {
        "name": "Marley Guerra",
        "streetNumber": 13251,
        "streetName": "ForestAvenue",
        "zip": 94574,
        "city": "SaintHelena",
        "state": "CA",
        "country": "US",
        "compromised": true,
        "capacity": 12,
        "reserved": 6,
        "latitude": 38.55,
        "longitude": -122.39,
        "ownerName": "Marley Guerra",
        "phoneNum": "(883) 659-3758"
    },
    {
        "name": "Caitlin Pineda",
        "streetNumber": 18178,
        "streetName": "DevonRoad",
        "zip": 94575,
        "city": "Moraga",
        "state": "CA",
        "country": "US",
        "compromised": false,
        "capacity": 47,
        "reserved": 20,
        "latitude": 37.84,
        "longitude": -122.12,
        "ownerName": "Caitlin Pineda",
        "phoneNum": "(537) 239-1474"
    },
    {
        "name": "Hadley Larsen",
        "streetNumber": 9212,
        "streetName": "MyrtleStreet",
        "zip": 94576,
        "city": "DeerPark",
        "state": "CA",
        "country": "US",
        "compromised": true,
        "capacity": 41,
        "reserved": 33,
        "latitude": 38.55,
        "longitude": -122.47,
        "ownerName": "Hadley Larsen",
        "phoneNum": "(304) 514-1666"
    },
    {
        "name": "Dario York",
        "streetNumber": 19922,
        "streetName": "HawthorneAvenue",
        "zip": 94577,
        "city": "SanLeandro",
        "state": "CA",
        "country": "US",
        "compromised": true,
        "capacity": 44,
        "reserved": 11,
        "latitude": 37.71,
        "longitude": -122.16,
        "ownerName": "Dario York",
        "phoneNum": "(264) 598-4775"
    },
    {
        "name": "Angelo Tyler",
        "streetNumber": 15129,
        "streetName": "CarriageDrive",
        "zip": 94578,
        "city": "SanLeandro",
        "state": "CA",
        "country": "US",
        "compromised": false,
        "capacity": 46,
        "reserved": 20,
        "latitude": 37.7,
        "longitude": -122.12,
        "ownerName": "Angelo Tyler",
        "phoneNum": "(753) 879-1795"
    }
]